Overall Rank,City,Region,Happiness Score,Emotional & Physical Well-Being Rank,Income & Employment Rank,Community & Environment Rank,Latitude,Longitude,Elevation,max_temp_mean,min_temp_mean,daylight_duration_mean,sunshine_duration_mean,uv_index_max_mean,precipitation_sum_mean,rain_sum_mean,showers_sum_mean,snowfall_sum_mean,precipitation_hours_mean,wind_speed_10m_max_mean,wind_gusts_10m_max_mean,shortwave_radiation_sum_mean
1,"Fremont, CA",West,74.16,1,85,3,37.55,-121.98,18.00,69.66520548,50.5939726,12.19318456,8.229079011,5.720547945,0.038832877,0.038832877,0,0,0.624657534,11.47452055,18.14136986,17.95112329
2,"Overland Park, KS",Midwest,69.78,6,36,6,38.98,-94.66,333.00,69.02356164,48.9290411,12.19899005,8.042054368,5.339315068,0.080616438,0.080616438,0,0,0.934246575,12.5490411,24.01616438,16.69427397
3,"San Jose, CA",West,69.54,2,33,37,37.35,-121.88,33.00,71.23726027,50.2339726,12.19239655,8.608135974,5.73739726,0.040254795,0.040254795,0,0,0.583561644,11.16465753,16.94493151,18.45769863
4,"Madison, WI",Midwest,68.99,7,17,9,43.06,-89.40,272.00,60.2090411,42.52712329,12.2180182,7.386339482,4.536986301,0.08,0.08,0,0,1.22739726,12.08958904,23.79123288,15.67852055
5,"Irvine, CA",West,68.22,4,26,24,33.67,-117.83,18.00,72.84547945,55.62767123,12.17916406,7.673047192,6.161780822,0.036123288,0.036123288,0,0,0.476712329,9.522465753,13.8509589,17.29545205
6,"Honolulu, HI",West,68.03,19,40,1,21.38,-158.00,4.00,84.15369863,73.5769863,12.14691051,10.56699368,7.695753425,0.012558904,0.000909589,0.011076712,0,0.8,11.92849315,25.51068493,20.53473973
7,"San Francisco, CA",West,67.01,3,81,30,37.76,-122.41,18.00,65.44520548,49.69671233,12.19403295,8.262793623,5.672739726,0.062652055,0.062652055,0,0,0.775342466,12.91726027,21.28794521,17.41191781
8,"Pearl City, HI",West,66.9,15,151,2,21.38,-158.00,24.00,83.91589041,73.33534247,12.14691051,10.56699368,7.580821918,0.012558904,0.000909589,0.011076712,0,0.8,11.92849315,25.51068493,20.53473973
9,"Columbia, MD",Northeast,65.77,5,170,60,39.25,-76.85,123.00,67.23726027,48.77287671,12.20013763,7.647249893,5.060273973,0.082742466,0.082742466,0,0,0.969863014,10.77726027,21.54575342,16.128
10,"Scottsdale, AZ",Southwest,65.26,27,72,4,33.51,-111.91,385.00,87.41013699,62.25726027,12.17865641,10.00037329,6.568356164,0.016569863,0.016569863,0,0,0.18630137,9.604383562,18.56410959,21.58926027
11,"Sioux Falls, SD",Midwest,65.06,10,57,47,43.56,-96.69,452.00,59.95013699,39.77808219,12.22063101,8.234117192,5.049315068,0.035364384,0.035364384,0,0,0.701369863,14.49205479,25.58,16.43024658
12,"Huntington Beach, CA",West,64.28,13,77,53,33.66,-117.99,14.00,67.96630137,54.78136986,12.17915313,7.503166012,5.920684932,0.029657534,0.029657534,0,0,0.482191781,11.41753425,16.24164384,16.81926027
13,"Minneapolis, MN",Midwest,63.98,17,22,57,44.97,-93.26,261.00,58.93287671,41.79041096,12.22839799,7.519284254,4.499315068,0.054769863,0.054769863,0,0,1.279452055,11.0030137,22.95369863,15.07652055
14,"Garden Grove, CA",West,63.91,24,52,15,33.78,-117.96,28.00,73.85972603,55.9490411,12.17954124,7.689173927,6.143287671,0.039172603,0.039172603,0,0,0.484931507,9.588493151,14.15232877,17.23942466
15,"San Diego, CA",West,63.75,20,43,19,32.72,-117.15,12.00,70.39835616,56.65369863,12.17608207,7.009789368,6.195205479,0.036506849,0.036506849,0,0,0.37260274,9.53890411,13.17726027,16.09632877
16,"Fargo, ND",Midwest,63.68,11,20,134,46.88,-96.80,277.00,54.97452055,35.97479452,12.23997754,7.828506712,4.676849315,0.037213699,0.037213699,0,0,0.860273973,14.31452055,25.83287671,15.16947945
17,"Portland, ME",Northeast,63.46,43,3,27,43.65,-70.27,27.00,57.15534247,42.36136986,12.22111202,7.018371256,4.300273973,0.121679452,0.121679452,0,0,1.780821918,12.65315068,23.86520548,14.51246575
18,"Seattle, WA",West,63.39,8,14,128,47.60,-122.32,59.00,60.7090411,46.00547945,12.24464805,6.270357907,4.031917808,0.056649315,0.056649315,0,0,1.698630137,8.865205479,17.66547945,13.17690411
19,"Lincoln, NE",Midwest,63.35,21,27,43,40.79,-96.65,371.00,67.11260274,45.21041096,12.20694972,8.428877344,5.211917808,0.044613699,0.044613699,0,0,0.734246575,13.74794521,25.3169863,17.16049315
20,"Bismarck, ND",Midwest,63.23,12,11,149,46.82,-100.78,519.00,55.15342466,34.73561644,12.2395624,8.283301613,4.763150685,0.032136986,0.032136986,0,0,0.747945205,13.83068493,24.17808219,15.86821918
21,"Gilbert, AZ",Southwest,62.99,40,44,7,33.34,-111.78,377.00,87.86246575,61.30986301,12.17808746,10.05846207,6.604931507,0.011824658,0.011824658,0,0,0.18630137,9.556164384,17.94164384,21.67912329
22,"Charleston, SC",Southeast,62.53,45,15,18,32.80,-79.90,12.00,75.79506849,60.24849315,12.17633457,8.437519444,6.023287671,0.185542466,0.185542466,0,0,1.035616438,12.13452055,22.26383562,18.01479452
23,"South Burlington, VT",Northeast,62.42,16,30,139,44.47,-73.16,97.00,57.40931507,41.35561644,12.22559374,6.855535951,4.281232877,0.104268493,0.104268493,0,0,1.742465753,10.80465753,22.23123288,14.43252055
24,"Glendale, CA",West,62.31,32,92,13,34.14,-118.26,169.00,74.82986301,54.99506849,12.1807418,8.226331956,6.072328767,0.065084932,0.065084932,0,0,0.706849315,9.36109589,13.27589041,18.15117808
25,"Anaheim, CA",West,62.28,26,55,36,33.85,-117.91,49.00,75.94054795,56.15041096,12.17975574,7.823912245,6.143287671,0.040808219,0.040808219,0,0,0.509589041,9.568493151,14.23534247,17.62854795
26,"Oakland, CA",West,62.24,14,104,77,37.79,-122.28,19.00,66.22246575,49.21205479,12.1941475,7.630355921,5.721780822,0.053065753,0.053065753,0,0,0.747945205,9.719178082,15.96767123,16.63783562
27,"Chula Vista, CA",West,61.75,25,87,28,32.65,-117.10,24.00,69.23123288,55.79232877,12.17584967,7.017647291,6.327123288,0.031720548,0.031720548,0,0,0.336986301,10.84191781,13.9090411,16.11652055
28,"Raleigh, NC",Southeast,61.73,9,126,99,35.77,-78.64,100.00,72.94465753,52.86739726,12.18647594,8.249415457,5.574109589,0.117690411,0.117690411,0,0,1.008219178,9.252328767,19.6369863,17.53353425
29,"Santa Rosa, CA",West,61.48,28,34,50,38.45,-122.73,54.00,70.87945205,46.25643836,12.19680726,8.18784433,5.591917808,0.059673973,0.059673973,0,0,0.928767123,9.736986301,15.9090411,17.67657534
30,"Santa Clarita, CA",West,61.4,23,122,49,34.39,-118.53,369.00,77.00136986,52.88986301,12.18159939,9.014655046,6.065342466,0.065613699,0.065613699,0,0,0.789041096,13.04712329,20.28164384,19.81726027
31,"Boise, ID",West,61.35,34,5,76,43.62,-116.19,835.00,65.63315068,44.47808219,12.22093473,8.241562024,5.018219178,0.027375342,0.027375342,0,0,0.709589041,12.28767123,19.06794521,17.18131507
32,"Oxnard, CA",West,61.31,36,94,16,34.21,-119.18,18.00,69.02986301,52.92109589,12.18097816,7.748924939,5.935890411,0.050961644,0.050961644,0,0,0.569863014,11.20191781,17.49643836,17.34172603
33,"Chandler, AZ",Southwest,60.9,50,84,17,33.31,-111.84,370.00,87.8460274,61.44082192,12.17797343,10.05522862,6.604931507,0.018939726,0.018939726,0,0,0.191780822,9.509315068,17.90520548,21.70082192
34,"Oceanside, CA",West,60.5,31,102,41,33.20,-117.37,23.00,68.04712329,54.45534247,12.17763189,7.19975382,6.203972603,0.041843836,0.041843836,0,0,0.394520548,10.35643836,14.73726027,16.41731507
35,"Plano, TX",Southwest,60.47,35,93,39,33.03,-96.71,207.00,80.2890411,59.95123288,12.17706298,8.34137433,5.966438356,0.068660274,0.068660274,0,0,0.77260274,12.27424658,23.6539726,18.17446575
36,"Rapid City, SD",Midwest,60.19,58,19,54,44.08,-103.23,991.00,62.89123288,39.53205479,12.2234216,8.970602633,5.034520548,0.057189041,0.057189041,0,0,0.871232877,13.8539726,23.62493151,17.43194521
37,"Aurora, IL",Midwest,60.04,29,149,33,41.77,-88.32,208.00,61.93452055,44.5309589,12.2115724,6.897311834,4.618493151,0.078663014,0.078663014,0,0,1.323287671,11.95671233,23.86438356,15.19534247
38,"Anchorage, AK",West,59.89,62,78,14,61.25,-149.88,34.00,43.37561644,32.19726027,12.41253953,5.88918156,2.633972603,0.074865753,0.037424658,0.013249315,0.140443836,4.397260274,7.201369863,14.28794521,8.711808219
39,"Yonkers, NY",Northeast,59.88,22,147,87,40.95,-73.91,26.00,64.72986301,48.72410959,12.20767911,7.365328227,4.718630137,0.126243836,0.126243836,0,0,1.449315068,11.5139726,22.55123288,15.3399726
40,"Chesapeake, VA",Southeast,59.77,61,103,12,36.81,-76.27,6.00,71.7339726,54.08739726,12.19034207,8.258495852,5.412739726,0.076252055,0.076252055,0,0,0.876712329,10.93178082,22.28273973,17.18273973
41,"Omaha, NE",Midwest,59.71,42,60,66,41.26,-95.93,335.00,65.69534247,44.38356164,12.20917153,8.166509574,5.090684932,0.052863014,0.052863014,0,0,0.687671233,12.47753425,23.44356164,16.67726027
42,"Virginia Beach, VA",Southeast,59.62,44,106,44,36.88,-76.01,4.00,69.51178082,54.75780822,12.19057662,8.215889011,5.41630137,0.084780822,0.084780822,0,0,0.865753425,13.94219178,24.25424658,17.20956164
43,"Santa Ana, CA",West,59.45,53,13,89,33.74,-117.88,37.00,73.84438356,56.12082192,12.17940577,7.783402002,6.143287671,0.042673973,0.042673973,0,0,0.504109589,9.544657534,13.80657534,17.37676712
44,"St. Paul, MN",Midwest,59.4,37,110,59,44.94,-93.08,240.00,58.86657534,41.4369863,12.22820869,7.490826005,4.491780822,0.060660274,0.060660274,0,0,1.252054795,10.48219178,22.40027397,15.08854795
45,"Cedar Rapids, IA",Midwest,59.36,60,82,34,42.00,-91.63,248.00,63.50684932,43.6339726,12.21268484,7.816886172,4.832328767,0.036975342,0.036975342,0,0,0.852054795,13.71369863,24.70164384,16.34934247
46,"Tempe, AZ",Southwest,59.34,64,32,32,33.40,-111.92,361.00,87.97808219,62.60438356,12.17829357,9.994013417,6.58369863,0.016487671,0.016487671,0,0,0.178082192,8.951780822,17.52356164,21.54493151
47,"Peoria, AZ",Southwest,58.86,65,128,8,33.58,-112.25,348.00,87.47863014,61.76520548,12.17886684,9.98231688,6.551780822,0.014273973,0.014273973,0,0,0.164383562,9.570136986,18.51068493,21.52487671
48,"Pembroke Pines, FL",Southeast,58.79,48,160,26,25.99,-80.21,4.00,85.35753425,71.73424658,12.15728269,8.764313364,7.065890411,0.229789041,0.229789041,0,0,0.975342466,11.50712329,19.01479452,18.47421918
49,"Juneau, AK",West,58.73,45,56,112,58.13,-134.25,11.00,50.93013699,43.3309589,12.35145935,4.497667778,2.464794521,0.371709589,0.296745205,0.044660274,0.050967123,10.75342466,8.202465753,15.69616438,7.363260274
50,"Washington, DC",Northeast,58.69,18,117,144,38.89,-77.03,12.00,69.35315068,51.02712329,12.19863216,7.62473911,5.081780822,0.08229589,0.08229589,0,0,0.934246575,9.31369863,20.05479452,16.05832877
51,"Cape Coral, FL",Southeast,58.54,70,101,11,26.57,-81.95,3.00,85.1430137,68.8709589,12.15870667,9.504250616,7.168082192,0.078183562,0.078183562,0,0,0.504109589,11.56712329,19.25041096,19.74353425
52,"Fort Lauderdale, FL",Southeast,58.51,59,74,68,26.11,-80.16,4.00,85.08,71.38630137,12.15758804,8.774669292,7.033972603,0.256361644,0.256361644,0,0,0.936986301,11.66054795,19.3230137,18.38783562
53,"Rancho Cucamonga, CA",West,58.47,67,67,35,34.10,-117.58,370.00,76.41013699,54.06054795,12.18060969,8.474134072,6.149589041,0.057528767,0.057528767,0,0,0.750684932,11.04739726,16.57890411,18.79865753
54,"Burlington, VT",Northeast,58.35,54,4,165,44.48,-73.20,66.00,57.55150685,42.00821918,12.22563279,6.883189033,4.302465753,0.119575342,0.119575342,0,0,1.756164384,11.17150685,22.56246575,14.4769863
55,"Jersey City, NJ",Northeast,58.01,33,167,64,40.72,-74.06,11.00,65.56109589,49.82684932,12.20666119,7.283152953,4.794246575,0.119172603,0.119172603,0,0,1.408219178,12.3,22.55479452,15.30827397
56,"Charlotte, NC",Southeast,57.9,30,134,102,35.22,-80.83,254.00,72.64767123,53.09726027,12.18447575,8.027314901,5.478219178,0.082739726,0.082739726,0,0,0.98630137,8.61260274,19.16027397,17.12616438
57,"Durham, NC",Southeast,57.88,41,69,109,35.98,-78.89,124.00,71.98657534,51.67068493,12.18723282,8.245344292,5.508082192,0.104934247,0.104934247,0,0,1.024657534,8.907671233,19.10438356,17.51610959
58,"Boston, MA",Northeast,57.71,39,7,161,42.37,-71.06,19.00,61.86849315,45.30520548,12.21449485,7.05766016,4.533424658,0.137627397,0.137627397,0,0,1.531506849,12.12547945,23.39726027,14.64443836
59,"Nampa, ID",West,57.62,72,16,86,43.54,-116.55,768.00,65.94794521,42.57232877,12.22050498,8.496903782,5.010273973,0.018876712,0.018876712,0,0,0.602739726,12,20.82657534,17.59630137
60,"Aurora, CO",West,57.6,38,150,78,39.73,-104.84,"1,648.00",66.02493151,40.40465753,12.20221431,8.178213919,5.868356164,0.043331507,0.043331507,0,0,0.846575342,11.92027397,21.52109589,18.30926027
61,"Long Beach, CA",West,57.59,51,109,92,33.77,-118.19,14.00,72.98383562,55.73726027,12.17948962,7.591104391,6.139041096,0.033463014,0.033463014,0,0,0.421917808,10.43945205,14.85041096,16.89747945
62,"Tampa, FL",Southeast,57.49,69,46,63,27.96,-82.44,10.00,84.46712329,66.94136986,12.16227143,8.957532451,6.911643836,0.121136986,0.121136986,0,0,0.580821918,10.25287671,19.13452055,18.61865753
63,"Sacramento, CA",West,57.47,55,21,138,38.58,-121.49,22.00,75.52520548,49.67315068,12.1973277,9.09990777,5.567671233,0.056531507,0.056531507,0,0,0.734246575,10.26054795,19.7909589,18.85468493
64,"Los Angeles, CA",West,57.33,49,86,116,34.06,-118.23,91.00,74.83041096,55.38,12.18047604,7.997383227,6.086575342,0.062117808,0.062117808,0,0,0.665753425,9.705479452,13.77315068,17.70010959
65,"Nashua, NH",Northeast,57.26,75,68,38,42.76,-71.47,54.00,61.49643836,43.46493151,12.21649382,7.038455434,4.425753425,0.156221918,0.156221918,0,0,1.682191781,10.59315068,21.88273973,14.71843836
66,"Austin, TX",Southwest,57.06,47,88,126,30.27,-97.75,157.00,83.33424658,62.30520548,12.16864976,7.944662009,6.177808219,0.061509589,0.061509589,0,0,0.728767123,9.983561644,21.43041096,17.97117808
67,"Portland, OR",West,56.74,57,63,125,45.53,-122.70,13.00,64.1369863,47.72547945,12.23165291,6.7086429,4.322739726,0.075575342,0.075575342,0,0,1.923287671,9.214794521,20.24027397,14.33430137
68,"Riverside, CA",West,56.69,71,38,84,33.94,-117.40,253.00,78.79424658,54.33534247,12.18006879,8.718375837,6.215479452,0.034526027,0.034526027,0,0,0.484931507,10.8260274,17.00547945,19.28109589
69,"Moreno Valley, CA",West,56.65,81,99,23,33.941628,-117.238266,500,76.79315068,53.15479452,12.18007705,8.76933032,6.258630137,0.034134247,0.034134247,0,0,0.575342466,10.42054795,17.04547945,19.63608219
70,"Missoula, MT",West,56.44,85,37,46,46.86,-113.98,978.00,59.19506849,39.5509589,12.23986447,7.893819315,4.683972603,0.027021918,0.027021918,0,0,0.654794521,10.65589041,17.69671233,15.62
71,"Mesa, AZ",Southwest,56.21,83,83,42,33.42,-111.83,379.00,87.75780822,62.21315068,12.1783347,9.978877458,6.587671233,0.012057534,0.012057534,0,0,0.2,9.228219178,18.20136986,21.53210959
72,"Des Moines, IA",Midwest,56.13,66,113,79,41.59,-93.62,265.00,63.98712329,44.18465753,12.21071757,7.976320464,4.969041096,0.066687671,0.066687671,0,0,0.657534247,11.88,22.83890411,16.52778082
73,"Denver, CO",West,56.09,52,121,130,39.75,-104.99,"1,609.00",67.20109589,39.35643836,12.20229379,8.158966629,5.848630137,0.038046575,0.038046575,0,0,0.84109589,11.5460274,20.57041096,18.21805479
74,"Orlando, FL",Southeast,55.99,68,39,117,28.55,-81.38,35.00,84.07287671,66.23068493,12.16385561,8.752577283,6.793150685,0.168257534,0.168257534,0,0,0.731506849,11.00630137,19.94849315,18.77808219
75,"Colorado Springs, CO",West,55.75,91,45,40,38.84,-104.82,"1,832.00",65.31178082,37.78767123,12.19840826,8.620423379,6.119315068,0.044720548,0.044720548,0,0,0.780821918,14.07726027,24.49369863,19.00671233
76,"Port St. Lucie, FL",Southeast,55.5,97,71,20,27.31,-80.35,6.00,83.76849315,68.01534247,12.16057951,9.094578683,6.836986301,0.154079452,0.154079452,0,0,0.739726027,12.56246575,20.57013699,19.15320548
77,"Salt Lake City, UT",West,55.45,77,31,123,40.75,-111.91,"1,302.00",65.00410959,44.41945205,12.20676322,8.01866153,5.659863014,0.040424658,0.040424658,0,0,0.964383562,11.64958904,19.58136986,17.8459726
78,"Fontana, CA",West,55.45,95,73,21,34.10,-117.45,378.00,76.8569863,54.48739726,12.18059937,8.657634954,6.222465753,0.065624658,0.065624658,0,0,0.780821918,12.10438356,19.77671233,19.17608219
79,"Pittsburgh, PA",Northeast,55.36,88,10,91,40.45,-80.01,236.00,65.09643836,46.73726027,12.20539344,6.910979893,4.565205479,0.085380822,0.085380822,0,0,1.076712329,9.979726027,21.11424658,15.05005479
80,"St. Petersburg, FL",Southeast,55.34,78,53,90,27.78,-82.69,16.00,83.08356164,66.84438356,12.1618002,9.202316492,7.027534247,0.125956164,0.125956164,0,0,0.539726027,10.7909589,19.94027397,19.40657534
81,"Ontario, CA",West,55.24,96,62,31,34.06,-117.64,308.00,76.73616438,54.01260274,12.18048171,8.557481644,6.149589041,0.058331507,0.058331507,0,0,0.704109589,10.57424658,15.62465753,18.85071233
82,"Billings, MT",,55.09,105,35,25,45.78,-108.51,954.00,63.4,40.11671233,12.2331775,8.480338265,4.908767123,0.024739726,0.024739726,0,0,0.564383562,12.59780822,21.41506849,16.56293151
83,"Chicago, IL",,54.8,56,179,83,41.85,-87.65,179.00,60.48767123,45.43479452,12.2119783,6.746096788,4.550684932,0.081268493,0.081268493,0,0,1.44109589,12.62684932,23.96575342,14.826
84,"Miami, FL",,54.77,73,23,151,25.77,-80.20,6.00,82.8339726,71.12630137,12.15675427,8.721097184,7.138219178,0.28979726,0.28979726,0,0,0.991780822,11.58136986,18.96657534,18.61339726
85,"Grand Rapids, MI",,54.63,100,42,52,42.95,-85.68,204.00,59.7739726,43.58,12.21747132,6.853602268,4.395890411,0.077178082,0.077178082,0,0,1.394520548,10.90630137,22.70082192,15.13389041
86,"New York, NY",,54.49,63,174,73,40.71,-73.99,51.00,65.02520548,49.54958904,12.20659887,7.258560053,4.794246575,0.125131507,0.125131507,0,0,1.369863014,12.49123288,22.73260274,15.25126027
87,"Phoenix, AZ",,54.14,86,115,69,33.44,-112.06,333.00,88.23123288,64.56164384,12.17841249,10.04262861,6.576164384,0.011024658,0.011024658,0,0,0.17260274,9.133424658,17.34931507,21.57479452
88,"Manchester, NH",,53.99,99,50,75,42.98,-71.46,80.00,60.67506849,43.08849315,12.21762657,7.102854307,4.373150685,0.158980822,0.158980822,0,0,1.687671233,10.83671233,22.11205479,14.77791781
89,"Tacoma, WA",,53.96,80,123,103,47.24,-122.43,85.00,61.97342466,45.14684932,12.24232769,6.244136187,4.071917808,0.057082192,0.057082192,0,0,1.569863014,9.524109589,18.1830137,13.3550137
90,"Wilmington, DE",,53.71,126,124,5,39.76,-75.55,33.00,66.35232877,49.96931507,12.20234131,7.667005411,4.909041096,0.146860274,0.146860274,0,0,1.016438356,10.83561644,21.79534247,16.2539726
91,"Modesto, CA",,53.6,103,66,65,37.65,-121.00,29.00,76.9030137,50.29616438,12.19356842,9.320498683,5.679315068,0.042958904,0.042958904,0,0,0.6,10.71369863,19.93643836,19.34980822
92,"West Valley City, UT",,53.25,107,51,74,40.68,-112.00,"1,313.00",64.77616438,44.62,12.20646164,8.355550647,5.659863014,0.042586301,0.042586301,0,0,0.893150685,13.40493151,22.03835616,18.33553425
93,"Atlanta, GA",,53.23,76,90,143,33.76,-84.40,327.00,73.29506849,55.3890411,12.17946945,7.831690944,5.849863014,0.14220274,0.14220274,0,0,0.994520548,9.946027397,20.70986301,17.07871233
94,"Hialeah, FL",,52.91,79,132,119,25.87,-80.27,3.00,85.29589041,72.70794521,12.15697874,8.737162511,7.121917808,0.240663014,0.240663014,0,0,0.964383562,11.07616438,18.42109589,18.14756164
95,"Columbia, SC",,52.89,122,28,48,33.99,-81.04,90.00,75.75260274,55.37808219,12.18023674,8.344780205,5.837671233,0.107556164,0.107556164,0,0,0.978082192,8.999726027,18.84958904,17.89539726
96,"Cheyenne, WY",,52.63,87,24,164,41.14,-104.81,"1,866.00",60.07287671,35.95013699,12.20857208,8.29216793,5.750821918,0.047235616,0.047235616,0,0,0.676712329,16.17835616,28.1369863,17.85553425
97,"Worcester, MA",,52.58,92,41,150,42.27,-71.78,153.00,60.70027397,44.34465753,12.21401266,7.198970479,4.585753425,0.131772603,0.131772603,0,0,1.673972603,11.33753425,23.73616438,15.13306849
98,"Tallahassee, FL",,52.54,109,48,98,30.44,-84.29,69.00,79.46876712,61.03616438,12.16915008,8.473017983,6.403424658,0.149013699,0.149013699,0,0,0.895890411,10.44191781,19.75945205,18.45663014
99,"Glendale, AZ",,52.44,93,133,81,33.53,-112.18,350.00,87.61260274,62.72958904,12.17871989,10.01286187,6.53369863,0.014509589,0.014509589,0,0,0.15890411,9.408493151,18.25835616,21.51931507
100,"Vancouver, WA",,52.34,74,97,174,45.65,-122.66,55.00,63.83726027,46.67369863,12.2323503,6.49426742,4.28739726,0.070167123,0.070167123,0,0,1.84109589,10.05561644,20.56876712,13.91841096
101,"Reno, NV",,52.16,106,29,122,39.52,-119.83,"1,377.00",65.44630137,40.02657534,12.20131326,9.304796088,5.885479452,0.028561644,0.028561644,0,0,0.789041096,12.68712329,21.57041096,19.78479452
102,"Providence, RI",,52.11,118,2,170,41.83,-71.43,10.00,62.65342466,46.48356164,12.21185408,7.120177161,4.65,0.1234,0.1234,0,0,1.487671233,11.75178082,23.35589041,14.93575342
103,"Lexington-Fayette, KY",,52.01,110,120,70,38.04,-84.45,306.00,67.57479452,49.04657534,12.19513649,7.674847306,5.077808219,0.102334247,0.102334247,0,0,0.969863014,11.49917808,22.27835616,16.63958904
104,"Irving, TX",,51.93,98,111,108,32.81,-96.96,148.00,82.18958904,60.89616438,12.17637763,8.283423562,5.99109589,0.054112329,0.054112329,0,0,0.646575342,11.57972603,22.68657534,18.00808219
105,"Bridgeport, CT",,51.84,82,180,72,41.19,-73.20,11.00,63.20520548,47.5830137,12.20882845,7.28486105,4.722054795,0.104150685,0.104150685,0,0,1.328767123,11.35232877,23.58657534,15.32660274
106,"Jacksonville, FL",,51.76,115,135,51,30.32,-81.64,6.00,80.39369863,64.04657534,12.16880332,8.396784056,6.459041096,0.169232877,0.169232877,0,0,0.849315068,12.12547945,21.86849315,17.92249315
107,"Nashville, TN",,51.72,119,118,58,36.16,-86.80,158.00,73.10191781,52.95205479,12.18789321,7.663145107,5.38890411,0.119358904,0.119358904,0,0,0.890410959,9.598630137,19.65616438,16.41630137
108,"Milwaukee, WI",,51.55,89,157,101,43.04,-87.92,189.00,58.36493151,43.39123288,12.21790042,7.293405761,4.386712329,0.068542466,0.068542466,0,0,1.405479452,12.99315068,24.69643836,15.4659726
109,"Grand Prairie, TX",,51.25,112,154,55,32.76,-97.00,160.00,81.80575342,60.5509589,12.17620652,8.339095708,6.002328767,0.055369863,0.055369863,0,0,0.687671233,12.54109589,23.35863014,18.06936986
110,"Garland, TX",,50.87,113,139,82,32.92,-96.64,169.00,76.43232877,58.5430137,12.17671543,8.258036294,5.971232877,0.077915068,0.077915068,0,0,0.77260274,10.14630137,22.75260274,18.40561644
111,"Stockton, CA",,50.85,90,112,142,37.95,-121.27,5.00,75.13726027,50.25671233,12.19478221,9.152683371,5.594383562,0.044986301,0.044986301,0,0,0.646575342,10.04958904,19.80273973,19.22276712
112,"Fresno, CA",,50.75,115,80,118,36.75,-119.77,98.00,78.86246575,52.86164384,12.19011118,9.534817808,5.886164384,0.039008219,0.039008219,0,0,0.515068493,9.582191781,18.0369863,19.87638356
113,"Newport News, VA",,50.5,102,153,114,37.07,-76.47,11.00,70.86986301,53.54383562,12.19133428,8.240461248,5.376849315,0.093915068,0.093915068,0,0,0.884931507,11.06767123,22.26,17.2710411
114,"New Haven, CT",,50.47,128,49,110,41.31,-72.93,21.00,62.22520548,46.8769863,12.20936231,7.357747534,4.692465753,0.142041096,0.142041096,0,0,1.383561644,12.01013699,23.59424658,15.38912329
115,"Henderson, NV",,50.43,108,158,85,36.05,-114.98,568.00,81.94136986,57.38547945,12.1874925,9.907563006,6.081643836,0.00510137,0.00510137,0,0,0.131506849,12.74684932,21.42328767,21.03772603
116,"Las Cruces, NM",,50.19,121,75,133,32.31,-106.79,"1,192.00",81.46136986,52.28109589,12.1747876,10.20667261,6.833013699,0.004021918,0.004021918,0,0,0.101369863,12.72767123,22.97452055,22.65460274
117,"Fort Worth, TX",,49.9,117,144,105,32.73,-97.31,199.00,81.6290411,60.45013699,12.17612401,8.560320297,5.99,0.061224658,0.061224658,0,0,0.665753425,11.79287671,23.4969863,18.59761644
118,"Wichita, KS",,49.86,124,108,94,37.69,-97.34,399.00,70.92849315,49.17726027,12.19373361,8.732888775,5.579041096,0.042747945,0.042747945,0,0,0.64109589,12.82575342,25.1939726,18.40306849
119,"Warwick, RI",,49.79,84,107,181,41.71,-71.40,6.00,61.70054795,46.79369863,12.2112822,7.19105051,4.658356164,0.113287671,0.113287671,0,0,1.520547945,13.4569863,24.28630137,15.1689863
120,"Greensboro, NC",,49.25,101,96,162,36.07,-79.79,257.00,71.10821918,51.64383562,12.18756267,8.275497504,5.484383562,0.077493151,0.077493151,0,0,0.97260274,9.338630137,19.45013699,17.43490411
121,"Arlington, TX",,49.23,111,143,135,32.73,-97.12,187.00,81.00821918,61.18082192,12.17612247,8.461131781,5.991369863,0.060912329,0.060912329,0,0,0.698630137,11.74246575,24.17178082,18.31630137
122,"Fort Wayne, IN",,49.12,127,137,93,41.13,-85.12,250.00,62.18465753,44.36876712,12.20855968,7.217693668,4.624931507,0.085213699,0.085213699,0,0,1.123287671,11.26136986,22.37123288,15.67726027
123,"Bakersfield, CA",,48.92,131,129,96,35.38,-119.01,124.00,80.43589041,54.55972603,12.1850419,9.677597215,6.120410959,0.024679452,0.024679452,0,0,0.383561644,9.418356164,15.52246575,20.33783562
124,"Spokane, WA",,48.88,134,8,145,47.67,-117.43,520.00,63.10520548,42.24191781,12.24516947,7.578450944,4.315753425,0.020172603,0.020172603,0,0,0.789041096,8.610684932,15.99232877,15.20183562
125,"Winston-Salem, NC",,48.84,123,98,132,36.09,-80.26,287.00,70.63178082,50.81424658,12.18763001,8.234509878,5.268630137,0.086882192,0.086882192,0,0,0.975342466,8.930684932,18.89178082,17.50123288
126,"Newark, NJ",,48.82,104,175,120,40.74,-74.17,14.00,65.72520548,49.45479452,12.20675432,7.264901773,4.756575342,0.121317808,0.121317808,0,0,1.416438356,11.39178082,21.88684932,15.36150685
127,"San Bernardino, CA",,48.43,138,79,97,34.11,-116.88,"3,223.00",42.88,27.98849315,12.18066059,9.71906497,6.448356164,0.138547945,0.138547945,0,0,0.936986301,16.3290411,26.75315068,22.39769863
128,"Kansas City, MO",,48.39,125,131,129,39.11,-94.59,280.00,68.87671233,48.78465753,12.19955171,7.961194559,5.314520548,0.084284932,0.084284932,0,0,0.947945205,10.93205479,22.84219178,16.77345205
129,"Albuquerque, NM",,48.32,132,69,141,35.08,-106.64,"1,514.00",73.8290411,46.40109589,12.18398858,9.575734033,6.512328767,0.012591781,0.012591781,0,0,0.22739726,12.90465753,23.14438356,21.33832877
130,"Dover, DE",,48.3,157,127,10,39.17,-75.52,12.00,67.2290411,49.96958904,12.19980695,7.945032557,5.030136986,0.091082192,0.091082192,0,0,0.953424658,12.43123288,23.55013699,16.61953425
131,"Norfolk, VA",,48.25,129,125,127,36.85,-76.29,7.00,71.82493151,54.07013699,12.19046553,8.297808516,5.412739726,0.083287671,0.083287671,0,0,0.882191781,11.07616438,22.28712329,17.11978082
132,"Dallas, TX",,48.07,114,138,158,32.78,-96.80,140.00,81.03178082,60.71945205,12.17628876,8.266673767,5.966849315,0.07259726,0.07259726,0,0,0.706849315,10.6569863,21.77589041,17.98016438
133,"Lewiston, ME",,47.72,176,1,29,44.09,-70.23,70.00,57.06438356,40.0430137,12.22349686,6.978263463,4.217945205,0.121958904,0.121958904,0,0,1.931506849,10.25205479,21.25041096,14.44358904
134,"Houston, TX",,47.4,94,168,172,29.77,-95.35,14.00,80.0769863,64.71726027,12.16721645,8.228450715,6.363561644,0.072446575,0.072446575,0,0,0.701369863,10.68465753,21.53534247,18.6969589
135,"Columbus, OH",,47.4,130,140,136,39.97,-82.98,227.00,65.58547945,47.01287671,12.20326558,7.113044178,4.757260274,0.069405479,0.069405479,0,0,0.964383562,10.58657534,21.36684932,15.29539726
136,"Huntsville, AL",,47.39,159,61,62,34.73,-86.57,197.00,74.08273973,55.7509589,12.18276352,8.102323006,5.699589041,0.120873973,0.120873973,0,0,0.942465753,10.93123288,20.59342466,17.38838356
137,"Richmond, VA",,47.27,120,159,157,37.55,-77.44,69.00,70.49452055,50.60684932,12.19320444,8.199138539,5.287945205,0.064449315,0.064449315,0,0,0.934246575,9.278356164,19.57424658,17.36473973
138,"Chattanooga, TN",,47.14,150,116,45,35.03,-85.30,209.00,73.94438356,53.31863014,12.18382071,8.297323638,5.494109589,0.09409863,0.09409863,0,0,1.093150685,8.944657534,18.01589041,17.61235616
139,"Tucson, AZ",,46.7,147,89,115,32.23,-110.93,758.00,86.35150685,57.31506849,12.17452687,10.24963922,6.858630137,0.010082192,0.010082192,0,0,0.205479452,12.21753425,21.42876712,22.47169863
140,"Louisville, KY",,46.61,143,163,71,38.26,-85.76,144.00,68.00767123,50.44520548,12.19603264,7.680502565,5.110410959,0.07069589,0.07069589,0,0,0.909589041,9.382191781,20.18657534,16.726
141,"Oklahoma City, OK",,46.56,148,155,61,35.48,-97.51,371.00,74.72273973,53.43671233,12.18540272,8.640045868,5.755479452,0.055128767,0.055128767,0,0,0.632876712,13.17671233,25.46273973,18.64038356
142,"El Paso, TX",,46.43,133,141,131,31.77,-106.50,"1,140.00",82.24657534,57.10657534,12.17310899,10.22020007,6.914520548,0.004769863,0.004769863,0,0,0.098630137,14.30876712,24.5969863,22.75076712
143,"Little Rock, AR",,46.4,142,152,100,34.74,-92.29,102.00,75.53643836,55.70493151,12.18279041,8.031923546,5.724383562,0.093315068,0.093315068,0,0,1.010958904,10.39753425,20.28109589,17.41542466
144,"Indianapolis, IN",,46.39,136,169,88,39.77,-86.14,214.00,66.36657534,47.35342466,12.20238041,7.478355091,4.890821918,0.067208219,0.067208219,0,0,0.873972603,11.04356164,21.95452055,16.05115068
145,"Brownsville, TX",,46.38,154,59,113,25.89,-97.51,15.00,84.92465753,69.24767123,12.15703683,8.496564612,6.71,0.07579726,0.07579726,0,0,0.602739726,14.50273973,23.49315068,18.75367123
146,"Cincinnati, OH",,45.95,145,119,124,39.14,-84.53,266.00,66.79616438,46.72767123,12.19967486,7.668328516,4.899452055,0.082336986,0.082336986,0,0,0.950684932,10.35479452,20.99232877,16.18709589
147,"Amarillo, TX",,45.86,153,91,111,35.23,-101.83,"1,119.00",74.62986301,48.5909589,12.18453004,9.494001781,6.250684932,0.03010137,0.03010137,0,0,0.383561644,18.01123288,29.36575342,20.53789041
148,"Rochester, NY",,45.75,141,76,173,43.16,-77.60,153.00,59.32986301,44.19780822,12.21850783,6.53093796,4.233835616,0.065742466,0.065742466,0,0,1.449315068,12.31342466,23.92493151,14.31210959
149,"Knoxville, TN",,45.71,169,25,56,35.96,-83.90,276.00,71.41671233,51.04,12.18715079,7.963592131,5.352465753,0.083846575,0.083846575,0,0,0.939726027,9.016712329,18.50684932,17.34654795
150,"Laredo, TX",,45.52,160,6,153,27.51,-99.51,130.00,89.76849315,66.52767123,12.16110441,8.817591735,6.614794521,0.030084932,0.030084932,0,0,0.452054795,11.88410959,24.3630137,19.67728767
151,"Buffalo, NY",,45.47,140,105,160,42.89,-78.88,180.00,59.05150685,44.67835616,12.21712537,6.571874901,4.287534247,0.075528767,0.075528767,0,0,1.526027397,12.8369863,24.79589041,14.36093151
152,"Las Vegas, NV",,45.38,135,171,121,36.16,-115.14,609.00,81.18438356,58.27890411,12.187905,9.837623326,6.33630137,0.014380822,0.014380822,0,0,0.169863014,14.32493151,21.39506849,20.95454795
153,"Casper, WY",,45.21,144,100,168,42.88,-106.33,"1,558.00",60.13232877,37.3739726,12.21707179,8.834715472,5.627945205,0.018147945,0.018147945,0,0,0.482191781,20.67753425,30.00136986,18.06142466
154,"Springfield, MO",,45.16,165,65,80,37.21,-93.31,397.00,69.40136986,50.04876712,12.19185115,8.33679946,5.399863014,0.085786301,0.085786301,0,0,0.873972603,11.49561644,23.04219178,17.87339726
155,"North Las Vegas, NV",,44.95,146,176,95,36.20,-115.12,568.00,81.78876712,57.67424658,12.18802187,9.80105102,6.335479452,0.021284932,0.021284932,0,0,0.180821918,14.84876712,21.83561644,20.94210959
156,"New Orleans, LA",,44.87,152,58,154,29.96,-90.07,10.00,80.79780822,65.01150685,12.16775352,8.563275259,6.51260274,0.08430137,0.08430137,0,0,0.61369863,10.81506849,20.39534247,18.4350411
157,"Tulsa, OK",,44.86,162,95,104,36.14,-96.00,226.00,74.32849315,53.0369863,12.18781846,8.375977496,5.475068493,0.088915068,0.088915068,0,0,0.838356164,10.98849315,22.95150685,17.99983562
158,"Corpus Christi, TX",,44.55,151,64,156,27.79,-97.42,8.00,82.10493151,68.19534247,12.16184549,8.537257945,6.56369863,0.086591781,0.086591781,0,0,0.693150685,14.91150685,24.0739726,18.42846575
159,"Salem, OR",,44.1,137,54,179,44.93,-123.05,55.00,65.99260274,45.8769863,12.22816995,6.90742277,4.417945205,0.056323288,0.056323288,0,0,1.610958904,9.922465753,20.0169863,14.67312329
160,"Baltimore, MD",,43.78,139,165,163,39.29,-76.62,29.00,68.85178082,50.81232877,12.20031955,7.476875883,5.055479452,0.067841096,0.067841096,0,0,0.989041096,10.19068493,20.6490411,15.75863014
161,"Philadelphia, PA",,43.57,156,136,137,39.96,-75.16,16.00,67.05808219,50.28465753,12.20323695,7.560888075,4.712739726,0.118786301,0.118786301,0,0,1.126027397,10.56630137,21.29863014,15.97350685
162,"Charleston, WV",,43.26,178,12,67,38.35,-81.64,191.00,70.00410959,49.54219178,12.19637753,7.298977055,4.934794521,0.089336986,0.089336986,0,0,0.898630137,9.111232877,19.72657534,16.01452055
163,"Lubbock, TX",,43.17,164,47,155,33.59,-101.86,978.00,78.00136986,51.40109589,12.17889768,9.487792374,6.405068493,0.034079452,0.034079452,0,0,0.410958904,16.07342466,27.15835616,20.83
164,"St. Louis, MO",,42.99,149,166,147,38.62,-90.21,142.00,69.54794521,50.18849315,12.1975174,7.816837976,5.183835616,0.090635616,0.090635616,0,0,0.901369863,10.90410959,21.86328767,16.64621918
165,"San Antonio, TX",,42.31,155,130,169,29.41,-98.49,203.00,85.06410959,63.51726027,12.16621616,8.269279391,6.380273973,0.044624658,0.044624658,0,0,0.556164384,10.93671233,22.02684932,18.58553425
166,"Columbus, GA",,40.91,168,142,148,32.47,-85.00,75.00,78.15150685,57.23643836,12.1753031,8.29516446,6.079726027,0.087153425,0.087153425,0,0,0.835616438,8.947945205,18.11123288,18.09421918
167,"Fayetteville, NC",,40.56,170,146,152,35.05,-78.89,36.00,75.22328767,54.64931507,12.18387362,8.207410304,5.667123288,0.120652055,0.120652055,0,0,0.882191781,9.862739726,20.28739726,17.71849315
168,"Fort Smith, AR",,40.1,181,9,106,35.38,-94.40,133.00,75.91589041,54.52931507,12.18505767,8.298303493,5.428630137,0.105764384,0.105764384,0,0,0.980821918,10.49452055,19.6569863,17.81158904
169,"Baton Rouge, LA",,40.1,167,114,171,30.43,-91.18,18.00,81.51232877,63.4709589,12.16911453,8.650352291,6.384246575,0.092846575,0.092846575,0,0,0.649315068,10.50931507,20.22821918,18.40775342
170,"Memphis, TN",,39.85,158,181,159,35.15,-90.05,84.00,73.48876712,55.6709589,12.18423859,8.106376484,5.478082192,0.115758904,0.115758904,0,0,0.871232877,10.47342466,20.77315068,17.47868493
171,"Augusta, GA",,39.44,163,156,178,33.47,-81.97,44.00,77.10520548,56.49260274,12.17850974,8.294601705,5.873972603,0.095805479,0.095805479,0,0,0.909589041,9.344931507,18.41315068,17.88123288
172,"Gulfport, MS",,39.25,173,162,146,30.37,-89.10,8.00,76.34657534,63.37726027,12.16893157,8.423673432,6.426849315,0.119671233,0.119671233,0,0,0.742465753,12.89835616,22.14876712,18.73558904
173,"Akron, OH",,39.15,166,145,175,41.09,-81.51,290.00,63.20410959,45.17561644,12.20836944,6.941289658,4.609315068,0.082254795,0.082254795,0,0,1.246575342,11.23205479,22.88246575,15.12156164
174,"Mobile, AL",,38.97,175,172,107,30.71,-88.04,5.00,79.75945205,61.67260274,12.16992341,8.498958097,6.323972603,0.084687671,0.084687671,0,0,0.863013699,10.6939726,19.41068493,18.52375342
175,"Jackson, MS",,38.79,161,178,177,32.30,-90.20,93.00,79.80547945,58.69534247,12.17475721,8.494609011,6.089315068,0.118460274,0.118460274,0,0,0.832876712,10.4660274,20.3490411,18.21673973
176,"Toledo, OH",,37.51,174,164,166,41.67,-83.57,191.00,61.05178082,45.35534247,12.21111757,7.00125532,4.567671233,0.081136986,0.081136986,0,0,1.109589041,10.68219178,22.55643836,15.14419178
177,"Huntington, WV",,37.31,182,18,22,38.43,-82.46,177.00,70.06383562,48.71178082,12.19671123,7.70670102,4.964520548,0.053931507,0.053931507,0,0,0.854794521,9.193972603,19.69232877,16.30747945
178,"Shreveport, LA",,36.54,179,173,140,32.53,-93.75,52.00,79.43890411,59.63835616,12.17549358,8.420841476,5.972739726,0.115328767,0.115328767,0,0,0.876712329,10.1909589,19.73589041,18.27947945
179,"Birmingham, AL",,36.22,171,148,180,33.53,-86.81,187.00,75.77342466,55.97260274,12.17871755,8.260082085,5.893561644,0.077468493,0.077468493,0,0,0.824657534,9.355068493,19.44383562,17.94153425
180,"Montgomery, AL",,35.7,177,177,167,32.37,-86.30,79.00,79.43945205,57.90383562,12.17498297,8.460265731,6.119726027,0.101145205,0.101145205,0,0,0.832876712,9.976986301,18.6109589,18.06526027
181,"Cleveland, OH",,34.83,172,161,182,41.50,-81.71,200.00,60.69506849,46.29013699,12.21029504,7.018550563,4.55,0.07670411,0.07670411,0,0,1.150684932,14.16876712,23.78958904,15.19665753
182,"Detroit, MI",,31.43,180,182,176,42.32,-83.03,182.00,60.7539726,44.60657534,12.21427336,6.795859452,4.436027397,0.078627397,0.078627397,0,0,1.224657534,12.00219178,22.93643836,14.71515068